[{"location_id":"beijing_chn.2_1_cn","location_name":"Beijing","lat":39.9042,"lon":116.4074},{"location_id":"changchun_chn.17_1_cn","location_name":"Changchun","lat":43.8521,"lon":125.3191},{"location_id":"changsha_chn.14_1_cn","location_name":"Changsha","lat":28.1922,"lon":112.9704},{"location_id":"chengdu_chn.26_1_cn","location_name":"Chengdu","lat":30.6301,"lon":104.0646},{"location_id":"harbin_chn.11_1_cn","location_name":"Harbin","lat":45.7334,"lon":126.6181},{"location_id":"hengshui_chn.10_1_cn","location_name":"Hengshui","lat":37.6891,"lon":115.6453},{"location_id":"hengyang_chn.14_1_cn","location_name":"Hengyang","lat":26.9,"lon":112.5913},{"location_id":"huainan_chn.1_1_cn","location_name":"Huainan","lat":32.6172,"lon":117.0096},{"location_id":"jinan_chn.23_1_cn","location_name":"Jinan","lat":36.6922,"lon":117.0366},{"location_id":"jining_chn.23_1_cn","location_name":"Jining","lat":35.4133,"lon":116.5883},{"location_id":"kaifeng_chn.12_1_cn","location_name":"Kaifeng","lat":34.795,"lon":114.346},{"location_id":"laibin_chn.7_1_cn","location_name":"Laibin","lat":23.7321,"lon":109.2157},{"location_id":"linfen_chn.25_1_cn","location_name":"Linfen","lat":36.0717,"lon":111.5107},{"location_id":"panjin_chn.18_1_cn","location_name":"Panjin","lat":41.1167,"lon":121.9712},{"location_id":"pingxiang_chn.16_1_cn","location_name":"Pingxiang","lat":27.6352,"lon":113.858},{"location_id":"puyang_chn.12_1_cn","location_name":"Puyang","lat":35.7652,"lon":115.0156},{"location_id":"shanghai_chn.24_1_cn","location_name":"Shanghai","lat":31.2119,"lon":121.4509},{"location_id":"shenyang_chn.18_1_cn","location_name":"Shenyang","lat":41.7861,"lon":123.4387},{"location_id":"shihezi_chn.28_1_cn","location_name":"Shihezi","lat":44.3021,"lon":86.0597},{"location_id":"shijiazhuang_chn.10_1_cn","location_name":"Shijiazhuang","lat":38.0343,"lon":114.4741},{"location_id":"suqian_chn.15_1_cn","location_name":"Suqian","lat":33.9554,"lon":118.2883},{"location_id":"suzhou_chn.1_1_cn","location_name":"Suzhou","lat":33.6314,"lon":116.9726},{"location_id":"tianjin_chn.27_1_cn","location_name":"Tianjin","lat":39.0986,"lon":117.319},{"location_id":"urumqi_chn.28_1_cn","location_name":"Urumqi","lat":43.8174,"lon":87.5478},{"location_id":"wuhan_chn.13_1_cn","location_name":"Wuhan","lat":30.558,"lon":114.2529},{"location_id":"wulanchabu_chn.19_1_cn","location_name":"Wulanchabu","lat":41.0229,"lon":113.1119},{"location_id":"xi'an_chn.22_1_cn","location_name":"Xi'an","lat":34.305,"lon":108.9899},{"location_id":"xiangyang_chn.13_1_cn","location_name":"Xiangyang","lat":32.038,"lon":112.1471},{"location_id":"xianyang_chn.22_1_cn","location_name":"Xianyang","lat":34.3377,"lon":108.7031},{"location_id":"xingtai_chn.10_1_cn","location_name":"Xingtai","lat":37.0685,"lon":114.4916},{"location_id":"xuchang_chn.12_1_cn","location_name":"Xuchang","lat":34.044,"lon":113.8208},{"location_id":"yibin_chn.26_1_cn","location_name":"Yibin","lat":28.7915,"lon":104.6262},{"location_id":"zhengzhou_chn.12_1_cn","location_name":"Zhengzhou","lat":34.7683,"lon":113.6586},{"location_id":"zhuzhou_chn.14_1_cn","location_name":"Zhuzhou","lat":27.8712,"lon":113.1575}]
